<ArrayOfWaterStation xmlns:xsd="http://www.w3.org/2001/XMLSchema" xmlns:xsi="http://www.w3.org/2001/XMLSchema-instance"><WaterStation><StationNo>1010H006</StationNo><StationName>新磺溪橋</StationName><BasinNo>1010</BasinNo><BasinName>磺溪</BasinName><CityCode>65</CityCode><WarningLevel1>5.8</WarningLevel1><WarningLevel2>4.6</WarningLevel2><WarningLevel3 xsi:nil="true"/><TopLevel xsi:nil="true"/><Latitude>25.225749999999998</Latitude><Longitude>121.62936111111111</Longitude><TributaryID xsi:nil="true"/><PlanFloodLevel xsi:nil="true"/></WaterStation><WaterStation><StationNo>1010H007</StationNo><StationName>磺溪河口</StationName><BasinNo>1010</BasinNo><BasinName>磺溪</BasinName><Address>新北市新店區烏來橋</Address><CityCode>65</CityCode><WarningLevel1 xsi:nil="true"/><WarningLevel2 xsi:nil="true"/><WarningLevel3 xsi:nil="true"/><TopLevel xsi:nil="true"/><Latitude>25.229722222222222</Latitude><Longitude>121.63850000000001</Longitude><TributaryID xsi:nil="true"/><PlanFloodLevel xsi:nil="true"/></WaterStation><WaterStation><StationNo>1140H001</StationNo><StationName>新海大橋</StationName><BasinNo>1140</BasinNo><BasinName>淡水河</BasinName><Address>新北市新莊區</Address><CityCode>65</CityCode><WarningLevel1>10.2</WarningLevel1><WarningLevel2>7.7</WarningLevel2><WarningLevel3>2.8</WarningLevel3><TopLevel>11.55</TopLevel><Latitude>25.033502994444447</Latitude><Longitude>121.45461395277778</Longitude><TributaryID>2</TributaryID><Tributary>大漢溪</Tributary><PlanFloodLevel>10.16</PlanFloodLevel></WaterStation><WaterStation><StationNo>1140H002</StationNo><StationName>稜角</StationName><BasinNo>1140</BasinNo><BasinName>淡水河</BasinName><Address>桃園市復興區華陵里</Address><CityCode>68</CityCode><WarningLevel1 xsi:nil="true"/><WarningLevel2 xsi:nil="true"/><WarningLevel3 xsi:nil="true"/><TopLevel xsi:nil="true"/><Latitude>24.679378333333336</Latitude><Longitude>121.37559916666666</Longitude><TributaryID xsi:nil="true"/><PlanFloodLevel>0</PlanFloodLevel></WaterStation><WaterStation><StationNo>1140H029</StationNo><StationName>台北橋</StationName><BasinNo>1140</BasinNo><BasinName>淡水河</BasinName><Address>臺北市中正區</Address><CityCode>63</CityCode><WarningLevel1>8.5</WarningLevel1><WarningLevel2>6.7</WarningLevel2><WarningLevel3>2.2</WarningLevel3><TopLevel>10.03</TopLevel><Latitude>25.067593944444443</Latitude><Longitude>121.50884993888889</Longitude><TributaryID>5</TributaryID><Tributary>淡水河</Tributary><PlanFloodLevel>8.5</PlanFloodLevel></WaterStation><WaterStation><StationNo>1140H039</StationNo><StationName>土地公鼻</StationName><BasinNo>1140</BasinNo><BasinName>淡水河</BasinName><Address>新北市淡水區竹圍里土地公鼻</Address><CityCode>65</CityCode><WarningLevel1>5</WarningLevel1><WarningLevel2>3.1</WarningLevel2><WarningLevel3>2.1</WarningLevel3><TopLevel>5.86</TopLevel><Latitude>25.130166916666667</Latitude><Longitude>121.45852194444444</Longitude><TributaryID>5</TributaryID><Tributary>淡水河</Tributary><PlanFloodLevel>3.76</PlanFloodLevel></WaterStation><WaterStation><StationNo>1140H041</StationNo><StationName>秀巒</StationName><BasinNo>1140</BasinNo><BasinName>淡水河</BasinName><Address>新竹縣尖石鄉秀巒村</Address><CityCode>10004</CityCode><WarningLevel1 xsi:nil="true"/><WarningLevel2 xsi:nil="true"/><WarningLevel3 xsi:nil="true"/><TopLevel xsi:nil="true"/><Latitude>24.615852911111112</Latitude><Longitude>121.28454197222221</Longitude><TributaryID xsi:nil="true"/><PlanFloodLevel>0</PlanFloodLevel></WaterStation><WaterStation><StationNo>1140H043</StationNo><StationName>高義</StationName><BasinNo>1140</BasinNo><BasinName>淡水河</BasinName><Address>桃園市復興區高義里</Address><CityCode>68</CityCode><WarningLevel1 xsi:nil="true"/><WarningLevel2 xsi:nil="true"/><WarningLevel3 xsi:nil="true"/><TopLevel xsi:nil="true"/><Latitude>24.716146944444443</Latitude><Longitude>121.35612111111111</Longitude><TributaryID xsi:nil="true"/><PlanFloodLevel>0</PlanFloodLevel></WaterStation><WaterStation><StationNo>1140H048</StationNo><StationName>三峽(2)</StationName><BasinNo>1140</BasinNo><BasinName>淡水河</BasinName><Address>新北市三峽區三峽橋</Address><CityCode>65</CityCode><WarningLevel1>32.5</WarningLevel1><WarningLevel2>31.3</WarningLevel2><WarningLevel3 xsi:nil="true"/><TopLevel>37.41</TopLevel><Latitude>24.934472222222222</Latitude><Longitude>121.37397222222222</Longitude><TributaryID>1</TributaryID><Tributary>三峽河</Tributary><PlanFloodLevel>35.1</PlanFloodLevel></WaterStation><WaterStation><StationNo>1140H049</StationNo><StationName>橫溪</StationName><BasinNo>1140</BasinNo><BasinName>淡水河</BasinName><Address>新北市三峽區溪北里</Address><CityCode>65</CityCode><WarningLevel1 xsi:nil="true"/><WarningLevel2 xsi:nil="true"/><WarningLevel3 xsi:nil="true"/><TopLevel>27.91</TopLevel><Latitude>24.932972222222222</Latitude><Longitude>121.39897222222223</Longitude><TributaryID>1</TributaryID><Tributary>三峽河</Tributary><PlanFloodLevel xsi:nil="true"/></WaterStation><WaterStation><StationNo>1140H052</StationNo><StationName>中正橋</StationName><BasinNo>1140</BasinNo><BasinName>淡水河</BasinName><Address>臺北市古亭區上村里</Address><CityCode>63</CityCode><WarningLevel1>10.5</WarningLevel1><WarningLevel2>8.3</WarningLevel2><WarningLevel3>5.4</WarningLevel3><TopLevel>12</TopLevel><Latitude>25.02040493611111</Latitude><Longitude>121.51601092222222</Longitude><TributaryID>7</TributaryID><Tributary>新店溪</Tributary><PlanFloodLevel>10.75</PlanFloodLevel></WaterStation><WaterStation><StationNo>1140H054</StationNo><StationName>霞雲</StationName><BasinNo>1140</BasinNo><BasinName>淡水河</BasinName><Address>桃園市復興區羅浮里</Address><CityCode>68</CityCode><WarningLevel1 xsi:nil="true"/><WarningLevel2 xsi:nil="true"/><WarningLevel3 xsi:nil="true"/><TopLevel xsi:nil="true"/><Latitude>24.769804722222222</Latitude><Longitude>121.35413805555555</Longitude><TributaryID xsi:nil="true"/><PlanFloodLevel>0</PlanFloodLevel></WaterStation><WaterStation><StationNo>1140H058</StationNo><StationName>五堵</StationName><BasinNo>1140</BasinNo><BasinName>淡水河</BasinName><Address>基隆市七堵區</Address><CityCode>10017</CityCode><WarningLevel1>17.4</WarningLevel1><WarningLevel2>14.4</WarningLevel2><WarningLevel3 xsi:nil="true"/><TopLevel>19.23</TopLevel><Latitude>25.079083333333333</Latitude><Longitude>121.6965</Longitude><TributaryID>4</TributaryID><Tributary>基隆河</Tributary><PlanFloodLevel>17.66</PlanFloodLevel></WaterStation><WaterStation><StationNo>1140H059</StationNo><StationName>獅子頭</StationName><BasinNo>1140</BasinNo><BasinName>淡水河</BasinName><Address>新北市五堵區</Address><CityCode>65</CityCode><WarningLevel1>4.5</WarningLevel1><WarningLevel2>3</WarningLevel2><WarningLevel3 xsi:nil="true"/><TopLevel>6</TopLevel><Latitude>25.112085933333336</Latitude><Longitude>121.45871595</Longitude><TributaryID>5</TributaryID><Tributary>淡水河</Tributary><PlanFloodLevel>6.31</PlanFloodLevel></WaterStation><WaterStation><StationNo>1140H066</StationNo><StationName>秀朗橋</StationName><BasinNo>1140</BasinNo><BasinName>淡水河</BasinName><Address>新北市中和區秀朗橋</Address><CityCode>65</CityCode><WarningLevel1>11.3</WarningLevel1><WarningLevel2>9.1</WarningLevel2><WarningLevel3>5.9</WarningLevel3><TopLevel>15.04</TopLevel><Latitude>24.989416666666667</Latitude><Longitude>121.52919444444444</Longitude><TributaryID>7</TributaryID><Tributary>新店溪</Tributary><PlanFloodLevel>13.03</PlanFloodLevel></WaterStation><WaterStation><StationNo>1140H067</StationNo><StationName>三鶯橋</StationName><BasinNo>1140</BasinNo><BasinName>淡水河</BasinName><Address>新北市鶯歌區南靖里</Address><CityCode>65</CityCode><WarningLevel1>44.6</WarningLevel1><WarningLevel2>43.6</WarningLevel2><WarningLevel3 xsi:nil="true"/><TopLevel>48.71</TopLevel><Latitude>24.944972222222223</Latitude><Longitude>121.35347222222222</Longitude><TributaryID>2</TributaryID><Tributary>大漢溪</Tributary><PlanFloodLevel>44.59</PlanFloodLevel></WaterStation><WaterStation><StationNo>1140H068</StationNo><StationName>屈尺</StationName><BasinNo>1140</BasinNo><BasinName>淡水河</BasinName><Address>新北市新店區龜山橋</Address><CityCode>65</CityCode><WarningLevel1>50.5</WarningLevel1><WarningLevel2 xsi:nil="true"/><WarningLevel3 xsi:nil="true"/><TopLevel>54.3</TopLevel><Latitude>24.910027777777778</Latitude><Longitude>121.54880555555556</Longitude><TributaryID>7</TributaryID><Tributary>新店溪</Tributary><PlanFloodLevel>57.8</PlanFloodLevel></WaterStation><WaterStation><StationNo>1140H076</StationNo><StationName>石門(後池)</StationName><BasinNo>1140</BasinNo><BasinName>淡水河</BasinName><Address>桃園市龍潭區大坪村</Address><CityCode>68</CityCode><WarningLevel1 xsi:nil="true"/><WarningLevel2 xsi:nil="true"/><WarningLevel3 xsi:nil="true"/><TopLevel>142</TopLevel><Latitude>24.817472222222221</Latitude><Longitude>121.24561111111112</Longitude><TributaryID>2</TributaryID><Tributary>大漢溪</Tributary><PlanFloodLevel>140.68</PlanFloodLevel></WaterStation><WaterStation><StationNo>1140H082</StationNo><StationName>寶橋</StationName><BasinNo>1140</BasinNo><BasinName>淡水河</BasinName><Address>臺北市文山區</Address><CityCode>63</CityCode><WarningLevel1>18</WarningLevel1><WarningLevel2>15</WarningLevel2><WarningLevel3>11.6</WarningLevel3><TopLevel>21.29</TopLevel><Latitude>24.977694444444442</Latitude><Longitude>121.55380555555556</Longitude><TributaryID>6</TributaryID><Tributary>景美溪</Tributary><PlanFloodLevel>18.1</PlanFloodLevel></WaterStation><WaterStation><StationNo>1140H083</StationNo><StationName>入口堰</StationName><BasinNo>1140</BasinNo><BasinName>淡水河</BasinName><Address>新北市三重區重新路</Address><CityCode>65</CityCode><WarningLevel1>3.8</WarningLevel1><WarningLevel2>3.5</WarningLevel2><WarningLevel3>3.3</WarningLevel3><TopLevel>11.23</TopLevel><Latitude>25.047222222222224</Latitude><Longitude>121.46861111111112</Longitude><TributaryID>5</TributaryID><Tributary>淡水河</Tributary><PlanFloodLevel xsi:nil="true"/></WaterStation><WaterStation><StationNo>1140H095</StationNo><StationName>覽勝橋</StationName><BasinNo>1140</BasinNo><BasinName>淡水河</BasinName><Address>新北市烏來區攬勝橋</Address><CityCode>65</CityCode><WarningLevel1>114.5</WarningLevel1><WarningLevel2>112.5</WarningLevel2><WarningLevel3 xsi:nil="true"/><TopLevel>116.95</TopLevel><Latitude>24.861958055555558</Latitude><Longitude>121.55121888888888</Longitude><TributaryID>3</TributaryID><Tributary>南勢溪</Tributary><PlanFloodLevel xsi:nil="true"/></WaterStation><WaterStation><StationNo>1140H096</StationNo><StationName>水源橋</StationName><BasinNo>1140</BasinNo><BasinName>淡水河</BasinName><Address>新北市坪林區水源橋</Address><CityCode>65</CityCode><WarningLevel1 xsi:nil="true"/><WarningLevel2 xsi:nil="true"/><WarningLevel3 xsi:nil="true"/><TopLevel xsi:nil="true"/><Latitude>24.936154722222224</Latitude><Longitude>121.70036416666667</Longitude><TributaryID xsi:nil="true"/><PlanFloodLevel xsi:nil="true"/></WaterStation><WaterStation><StationNo>1140H097</StationNo><StationName>大林橋</StationName><BasinNo>1140</BasinNo><BasinName>淡水河</BasinName><Address>新北市坪林區大林橋</Address><CityCode>65</CityCode><WarningLevel1 xsi:nil="true"/><WarningLevel2 xsi:nil="true"/><WarningLevel3 xsi:nil="true"/><TopLevel xsi:nil="true"/><Latitude>24.93226138888889</Latitude><Longitude>121.70527527777779</Longitude><TributaryID xsi:nil="true"/><PlanFloodLevel>0</PlanFloodLevel></WaterStation><WaterStation><StationNo>1140H098</StationNo><StationName>金瓜寮橋</StationName><BasinNo>1140</BasinNo><BasinName>淡水河</BasinName><Address>新北市坪林區金瓜寮溪橋</Address><CityCode>65</CityCode><WarningLevel1 xsi:nil="true"/><WarningLevel2 xsi:nil="true"/><WarningLevel3 xsi:nil="true"/><TopLevel xsi:nil="true"/><Latitude>24.929621111111111</Latitude><Longitude>121.69159111111111</Longitude><TributaryID xsi:nil="true"/><PlanFloodLevel>0</PlanFloodLevel></WaterStation><WaterStation><StationNo>1140H099</StationNo><StationName>思源橋</StationName><BasinNo>1140</BasinNo><BasinName>淡水河</BasinName><Address>新北市坪林區思源橋</Address><CityCode>65</CityCode><WarningLevel1 xsi:nil="true"/><WarningLevel2 xsi:nil="true"/><WarningLevel3 xsi:nil="true"/><TopLevel xsi:nil="true"/><Latitude>24.961798055555555</Latitude><Longitude>121.76894650833333</Longitude><TributaryID xsi:nil="true"/><PlanFloodLevel>0</PlanFloodLevel></WaterStation><WaterStation><StationNo>1140H101</StationNo><StationName>柑園橋</StationName><BasinNo>1140</BasinNo><BasinName>淡水河</BasinName><Address>新北市</Address><CityCode>65</CityCode><WarningLevel1>21.3</WarningLevel1><WarningLevel2>18.9</WarningLevel2><WarningLevel3 xsi:nil="true"/><TopLevel>27.13</TopLevel><Latitude>24.966033961111112</Latitude><Longitude>121.39442490277779</Longitude><TributaryID>83</TributaryID><Tributary>北勢溪</Tributary><PlanFloodLevel xsi:nil="true"/></WaterStation><WaterStation><StationNo>1140H102</StationNo><StationName>虎寮潭橋站</StationName><BasinNo>1140</BasinNo><BasinName>淡水河</BasinName><Address>新北市坪林區虎寮潭橋</Address><CityCode>65</CityCode><WarningLevel1 xsi:nil="true"/><WarningLevel2 xsi:nil="true"/><WarningLevel3 xsi:nil="true"/><TopLevel xsi:nil="true"/><Latitude>24.949574125</Latitude><Longitude>121.74069730833334</Longitude><TributaryID xsi:nil="true"/><PlanFloodLevel>0</PlanFloodLevel></WaterStation><WaterStation><StationNo>1140H105</StationNo><StationName>城林橋</StationName><BasinNo>1140</BasinNo><BasinName>淡水河</BasinName><Address/><CityCode>65</CityCode><WarningLevel1>15.3</WarningLevel1><WarningLevel2>13</WarningLevel2><WarningLevel3 xsi:nil="true"/><TopLevel>16.45</TopLevel><Latitude>24.979166666666664</Latitude><Longitude>121.43055555555556</Longitude><TributaryID>2</TributaryID><Tributary>大漢溪</Tributary><PlanFloodLevel xsi:nil="true"/></WaterStation><WaterStation><StationNo>1140H106</StationNo><StationName>建國橋</StationName><BasinNo>1140</BasinNo><BasinName>淡水河</BasinName><Address/><CityCode>65</CityCode><WarningLevel1 xsi:nil="true"/><WarningLevel2 xsi:nil="true"/><WarningLevel3 xsi:nil="true"/><TopLevel>56.34</TopLevel><Latitude>24.952128994444443</Latitude><Longitude>121.34363591388889</Longitude><TributaryID>2</TributaryID><Tributary>大漢溪</Tributary><PlanFloodLevel xsi:nil="true"/></WaterStation><WaterStation><StationNo>1140H107</StationNo><StationName>安坑橋</StationName><BasinNo>1140</BasinNo><BasinName>淡水河</BasinName><Address>新北市新店區安坑橋</Address><CityCode>65</CityCode><WarningLevel1>15.1</WarningLevel1><WarningLevel2>12.4</WarningLevel2><WarningLevel3>10.7</WarningLevel3><TopLevel>17.35</TopLevel><Latitude>24.971388888888889</Latitude><Longitude>121.5286111111111</Longitude><TributaryID>7</TributaryID><Tributary>新店溪</Tributary><PlanFloodLevel xsi:nil="true"/></WaterStation></ArrayOfWaterStation>